{
  "clubs": [
    {
      "id": "88a5c3f4-055c-4d6d-84eb-93e255504eec",
      "name": "Теннисный клуб Елагин Остров",
      "address": "Елагин остров, 4Е",
      "latitude": 59.98206,
      "longitude": 30.263436
    },
    {
      "id": "c69d3a19-bff2-42d3-867b-68a21b99d8de",
      "name": "Футбольный стадион Химик",
      "address": "Рябовское ш., 9",
      "latitude": 59.962933,
      "longitude": 30.494927
    },
    {
      "id": "3b94cb12-920d-4a30-a2b8-d8b4fbedbd42",
      "name": "Ледовый каток Богатырь",
      "address": "Гаккелевская ул., 25, корп. 2Б",
      "latitude": 60.00138,
      "longitude": 30.258843
    },
    {
      "id": "95b95bcf-c7d0-4b96-affa-4551b03ab824",
      "name": "Яхт-клуб PROyachting",
      "address": "просп. Крузенштерна, 18соор9",
      "latitude": 59.953751,
      "longitude": 30.18382
    },
    {
      "id": "56ffef60-3aea-4256-b918-80477bc6ccb5",
      "name": "Спортивный комплекс Хоккейный город СКА",
      "address": "Российский просп., 6",
      "latitude": 59.922895,
      "longitude": 30.470232
    },
    {
      "id": "707aa0ae-2e52-4ae1-8112-845695ecc5b8",
      "name": "Теннисный клуб Глория",
      "address": "Московский парк Победы",
      "latitude": 59.870958,
      "longitude": 30.33567
    },
    {
      "id": "8f5b7e32-73a0-4661-a00e-32b5ffd6cd18",
      "name": "Спортивный клуб Сосновка парк",
      "address": "улица Жака Дюкло, 22П",
      "latitude": 60.02539,
      "longitude": 30.336178
    },
    {
      "id": "8af597ff-5f87-4cd8-8fae-d2c09f7d0b6f",
      "name": "Теннисный клуб Корты Парка Екатерингоф",
      "address": "Лифляндская улица, 12Г",
      "latitude": 59.903114,
      "longitude": 30.262184
    },
    {
      "id": "aff1d6dc-bc2b-42a4-9f83-2b1e1370b6b4",
      "name": "Яхт-клуб Сила ветра",
      "address": "Петровская коса, 9К",
      "latitude": 59.964926,
      "longitude": 30.239435
    },
    {
      "id": "d7863827-450d-4af2-b4f8-fc9bff7842fd",
      "name": "Петербургский теннисный клуб имени В.И. Никифорова",
      "address": "наб. Мартынова, 38",
      "latitude": 59.974301,
      "longitude": 30.254173
    },
    {
      "id": "439ea7c2-4dd2-4dbb-8182-7d71ad02c1e9",
      "name": "Центр пляжного спорта Динамо",
      "address": "проспект Динамо, 44Б",
      "latitude": 59.966278,
      "longitude": 30.267708
    },
    {
      "id": "6dfbd445-c9e7-4109-b7a2-742d44be538d",
      "name": "Теннисный клуб Fresh Fitness",
      "address": "Выборгское ш., 6",
      "latitude": 60.034737,
      "longitude": 30.318492
    },
    {
      "id": "1d13c146-5801-4100-a254-af87f750fde6",
      "name": "Клуб пляжного волейбола Rio",
      "address": "Елагин остров",
      "latitude": 59.979223,
      "longitude": 30.24542
    }
  ]
}
